[
  {
    "id": "gupabal_res_to_bukhan_entrance_fast_1",
    "origin": { "name": "구파발 주거지 A", "lat": 37.6365, "lng": 126.9193 },
    "destination": { "name": "북한산 입구", "lat": 37.6587, "lng": 126.9386 }
  },
  {
    "id": "gupabal_res_to_bukhan_entrance_fast_2",
    "origin": { "name": "구파발 주거지 B", "lat": 37.6353, "lng": 126.9181 },
    "destination": { "name": "북한산 입구", "lat": 37.6587, "lng": 126.9386 }
  },
  {
    "id": "hapjeong_res_to_worldcup_park_fast_mobility",
    "origin": { "name": "합정 주거지 A", "lat": 37.5511, "lng": 126.9097 },
    "destination": { "name": "월드컵공원 내부", "lat": 37.5676, "lng": 126.8786 }
  },
  {
    "id": "hapjeong_res_to_worldcup_park_fast_bike",
    "origin": { "name": "합정 주거지 B", "lat": 37.5511, "lng": 126.9085 },
    "destination": { "name": "월드컵공원 내부", "lat": 37.5676, "lng": 126.8786 }
  }
]
